[
  {
    "from": "https://www.apartments.com/chicago-il/",
    "title": "500 Lake Shore Drive",
    "location": "500 N Lake Shore Dr, Chicago, IL 60611",
    "phone": "(708) 919-3597"
  },
  {
    "from": "https://www.apartments.com/chicago-il/",
    "title": "K2 Apartments",
    "location": "365 N Halsted St, Chicago, IL 60661",
    "phone": "(708) 775-2345"
  },
  {
    "from": "https://www.apartments.com/chicago-il/",
    "title": "Landmark West Loop",
    "location": "1035 W Van Buren St, Chicago, IL 60607",
    "phone": "(708) 853-6779"
  },
  {
    "from": "https://www.apartments.com/chicago-il/",
    "title": "North+Vine",
    "location": "633 W North Ave, Chicago, IL 60610",
    "phone": "(708) 775-2218"
  },
  {
    "from": "https://www.apartments.com/chicago-il/",
    "title": "100 West Chestnut Apartments",
    "location": "100 W Chestnut St, Chicago, IL 60610",
    "phone": "(708) 919-3601"
  },
  {
    "from": "https://www.apartments.com/chicago-il/",
    "title": "Onni Fulton Market",
    "location": "354 N Union Ave, Chicago, IL 60661",
    "phone": "(708) 797-9487"
  },
  {
    "from": "https://www.apartments.com/chicago-il/",
    "title": "Coppia",
    "location": "1101 W Van Buren St, Chicago, IL 60607",
    "phone": "(872) 529-3535"
  },
  {
    "from": "https://www.apartments.com/chicago-il/",
    "title": "731 Plymouth by 3L Living",
    "location": "731 S Plymouth Ct, Chicago, IL 60605",
    "phone": "(708) 934-4095"
  },
  {
    "from": "https://www.apartments.com/chicago-il/",
    "title": "820 Michigan by 3L Living",
    "location": "820 S Michigan Ave, Chicago, IL 60605",
    "phone": "(708) 637-0432"
  },
  {
    "from": "https://www.apartments.com/chicago-il/",
    "title": "Linea Apartments",
    "location": "215 W Lake St, Chicago, IL 60606",
    "phone": "(708) 775-2221"
  },
  {
    "from": "https://www.apartments.com/chicago-il/",
    "title": "1401 S. State",
    "location": "1401 S State St, Chicago, IL 60605",
    "phone": "(708) 775-3592"
  },
  {
    "from": "https://www.apartments.com/chicago-il/",
    "title": "Emme",
    "location": "165 N Desplaines St, Chicago, IL 60661",
    "phone": "(708) 853-6117"
  },
  {
    "from": "https://www.apartments.com/chicago-il/",
    "title": "Lake Shore Plaza",
    "location": "445 E Ohio St, Chicago, IL 60611",
    "phone": "(708) 919-2978"
  },
  {
    "from": "https://www.apartments.com/chicago-il/",
    "title": "The Alfred",
    "location": "30 E Adams St, Chicago, IL 60603",
    "phone": "(708) 477-3490"
  },
  {
    "from": "https://www.apartments.com/chicago-il/",
    "title": "The Row Fulton Market",
    "location": "164 N Peoria St, Chicago, IL 60607",
    "phone": "(708) 498-4514"
  },
  {
    "from": "https://www.apartments.com/chicago-il/",
    "title": "30 E. Roosevelt Rd",
    "location": "30 E Roosevelt Rd, Chicago, IL 60605",
    "phone": "(708) 934-8132"
  },
  {
    "from": "https://www.apartments.com/chicago-il/",
    "title": "21st Street Lofts",
    "location": "61 E 21st St, Chicago, IL 60616",
    "phone": "(708) 797-9571"
  },
  {
    "from": "https://www.apartments.com/chicago-il/",
    "title": "Brix on Morse",
    "location": "1340 W Morse Ave, Chicago, IL 60626",
    "phone": "(224) 215-7672"
  },
  {
    "from": "https://www.apartments.com/chicago-il/",
    "title": "Addams Coliving",
    "location": "1407 W 15th St, Chicago, IL 60608",
    "phone": "(708) 316-4691"
  },
  {
    "from": "https://www.apartments.com/chicago-il/",
    "title": "AM1980",
    "location": "1980 N Milwaukee Ave, Chicago, IL 60647",
    "phone": "(708) 512-7698"
  },
  {
    "from": "https://www.apartments.com/chicago-il/",
    "title": "The Pavilion",
    "location": "5441 NE NEast River Rd, Chicago, IL 60656",
    "phone": "(630) 250-3139"
  },
  {
    "from": "https://www.apartments.com/chicago-il/",
    "title": "6954 N Sheridan Rd",
    "location": "6954 N Sheridan Rd, Chicago, IL 60626",
    "phone": "(224) 344-1681"
  },
  {
    "from": "https://www.apartments.com/chicago-il/",
    "title": "The Flamingo Apartments",
    "location": "5500 S Shore Dr, Chicago, IL 60637",
    "phone": "(708) 298-4277"
  },
  {
    "from": "https://www.apartments.com/chicago-il/",
    "title": "Edith Spurlock Sampson Apartments",
    "location": "2720 N Sheffield Ave, Chicago, IL 60614",
    "phone": "(833) 605-2466"
  },
  {
    "from": "https://www.apartments.com/chicago-il/",
    "title": "Times Square Apartments",
    "location": "869 W Buena Ave, Chicago, IL 60613",
    "phone": "(708) 695-6145"
  },
  {
    "from": "https://www.apartments.com/chicago-il/",
    "title": "5748 Blackstone By 3L Living",
    "location": "5748 S Blackstone Ave, Chicago, IL 60637",
    "phone": "(219) 600-3515"
  },
  {
    "from": "https://www.apartments.com/chicago-il/",
    "title": "5445 Ingleside By 3L Living",
    "location": "5445 S Ingleside Ave, Chicago, IL 60615",
    "phone": "(708) 572-3370"
  },
  {
    "from": "https://www.apartments.com/chicago-il/",
    "title": "Sheffield of Lincoln Park",
    "location": "2700 N Sheffield Ave, Chicago, IL 60614",
    "phone": "(708) 725-0076"
  },
  {
    "from": "https://www.apartments.com/chicago-il/",
    "title": "Park 205",
    "location": "205 W Touhy Ave, Park Ridge, IL 60068",
    "phone": "(224) 282-0526"
  },
  {
    "from": "https://www.apartments.com/chicago-il/",
    "title": "Ridgeland Flats",
    "location": "261 Washington Blvd, Oak Park, IL 60302",
    "phone": "(708) 934-8986"
  },
  {
    "from": "https://www.apartments.com/chicago-il/",
    "title": "1000 South Clark",
    "location": "1000 S Clark St., Chicago, IL 60605",
    "phone": "(708) 725-1136"
  },
  {
    "from": "https://www.apartments.com/chicago-il/",
    "title": "Cortland River North",
    "location": "220 W Illinois St, Chicago, IL 60654",
    "phone": "(708) 797-9427"
  },
  {
    "from": "https://www.apartments.com/chicago-il/",
    "title": "Chestnut Place",
    "location": "8 W Chestnut St, Chicago, IL 60610",
    "phone": "(708) 477-3238"
  },
  {
    "from": "https://www.apartments.com/chicago-il/",
    "title": "Chateau Wells",
    "location": "707 N Wells St, Chicago, IL 60654",
    "phone": "(872) 274-4049"
  },
  {
    "from": "https://www.apartments.com/chicago-il/",
    "title": "The Eagle Building - 3833 N Broadway",
    "location": "3833 N Broadway St, Chicago, IL 60613",
    "phone": "(312) 465-4096"
  },
  {
    "from": "https://www.apartments.com/chicago-il/",
    "title": "Env Chicago",
    "location": "345 N Wells St, Chicago, IL 60654",
    "phone": "(708) 725-1481"
  },
  {
    "from": "https://www.apartments.com/chicago-il/",
    "title": "The Montrose",
    "location": "4334 N Hazel St, Chicago, IL 60613",
    "phone": "(224) 344-2793"
  },
  {
    "from": "https://www.apartments.com/chicago-il/",
    "title": "2555 N Clark St",
    "location": "2555 N Clark St, Chicago, IL 60614",
    "phone": "(708) 919-3546"
  },
  {
    "from": "https://www.apartments.com/chicago-il/",
    "title": "The Bush Temple",
    "location": "800 N Clark St, Chicago, IL 60610",
    "phone": "(708) 919-2505"
  },
  {
    "from": "https://www.apartments.com/chicago-il/",
    "title": "The Hudson",
    "location": "750 N Hudson Ave, Chicago, IL 60654",
    "phone": "(708) 426-1180"
  }
]