[
  {
    "from": "https://www.apartments.com/chicago-il/",
    "title": "The Heron",
    "location": "5440 N Sheridan Rd, Chicago, IL 60640",
    "phone": "(224) 505-8692"
  },
  {
    "from": "https://www.apartments.com/chicago-il/",
    "title": "Ravenswood Terrace",
    "location": "1801 W Argyle St, Chicago, IL 60640",
    "phone": "(224) 328-3751"
  },
  {
    "from": "https://www.apartments.com/chicago-il/",
    "title": "Eight Eleven Uptown",
    "location": "811 W Agatite Ave, Chicago, IL 60640",
    "phone": "(224) 344-2484"
  },
  {
    "from": "https://www.apartments.com/chicago-il/",
    "title": "Spoke",
    "location": "728 N Morgan St, Chicago, IL 60642",
    "phone": "(708) 725-1565"
  },
  {
    "from": "https://www.apartments.com/chicago-il/",
    "title": "Roosevelt Collection Lofts",
    "location": "1135 S Delano Ct, Chicago, IL 60605",
    "phone": "(708) 725-0904"
  },
  {
    "from": "https://www.apartments.com/chicago-il/",
    "title": "Niche 905",
    "location": "905 N Orleans St, Chicago, IL 60610",
    "phone": "(312) 564-4568"
  },
  {
    "from": "https://www.apartments.com/chicago-il/",
    "title": "The Elle Apartments",
    "location": "801 S Financial Pl, Chicago, IL 60605",
    "phone": "(312) 248-7124"
  },
  {
    "from": "https://www.apartments.com/chicago-il/",
    "title": "HIGHPOINT Lincoln Park on Clark",
    "location": "2050 N Clark St, Chicago, IL 60614",
    "phone": "(708) 775-2751"
  },
  {
    "from": "https://www.apartments.com/chicago-il/",
    "title": "369 Grand by Onni",
    "location": "369 W Grand Ave, Chicago, IL 60654",
    "phone": "(224) 470-7402"
  },
  {
    "from": "https://www.apartments.com/chicago-il/",
    "title": "The Ardus",
    "location": "676 N La Salle Dr, Chicago, IL 60654",
    "phone": "(708) 919-3408"
  },
  {
    "from": "https://www.apartments.com/chicago-il/",
    "title": "1225 Old Town",
    "location": "1225 N Wells St, Chicago, IL 60610",
    "phone": "(708) 775-3873"
  },
  {
    "from": "https://www.apartments.com/chicago-il/",
    "title": "Aberdeen East",
    "location": "171 N Aberdeen St, Chicago, IL 60607",
    "phone": "(708) 695-6136"
  },
  {
    "from": "https://www.apartments.com/chicago-il/",
    "title": "The Jax",
    "location": "1220 W Jackson Blvd, Chicago, IL 60607",
    "phone": "(708) 498-3446"
  },
  {
    "from": "https://www.apartments.com/chicago-il/",
    "title": "927 W. Irving Park",
    "location": "927 W Irving Park Rd, Chicago, IL 60613",
    "phone": "(872) 246-7764"
  },
  {
    "from": "https://www.apartments.com/chicago-il/",
    "title": "Atwater Apartments",
    "location": "355 E Ohio St, Chicago, IL 60611",
    "phone": "(708) 725-1327"
  },
  {
    "from": "https://www.apartments.com/chicago-il/",
    "title": "1407 on Michigan",
    "location": "1407 S Michigan Ave, Chicago, IL 60605",
    "phone": "(708) 919-2789"
  },
  {
    "from": "https://www.apartments.com/chicago-il/",
    "title": "The Teller House",
    "location": "4753 N Broadway St, Chicago, IL 60640",
    "phone": "(224) 529-0625"
  },
  {
    "from": "https://www.apartments.com/chicago-il/",
    "title": "Uptown Regency - 5050 N Sheridan Rd",
    "location": "5050 N Sheridan Rd, Chicago, IL 60640",
    "phone": "(224) 344-2998"
  },
  {
    "from": "https://www.apartments.com/chicago-il/",
    "title": "Nevele22 - 1122 W Chicago",
    "location": "1122 W Chicago Ave, Chicago, IL 60642",
    "phone": "(773) 900-4766"
  },
  {
    "from": "https://www.apartments.com/chicago-il/",
    "title": "1100 N Dearborn St",
    "location": "1100 N Dearborn St, Chicago, IL 60610",
    "phone": "(708) 628-6889"
  },
  {
    "from": "https://www.apartments.com/chicago-il/",
    "title": "215 West Apartments",
    "location": "215 W Washington St, Chicago, IL 60606",
    "phone": "(708) 665-2657"
  },
  {
    "from": "https://www.apartments.com/chicago-il/",
    "title": "Gateway West Loop",
    "location": "11 S Green St, Chicago, IL 60607",
    "phone": "(708) 303-6734"
  },
  {
    "from": "https://www.apartments.com/chicago-il/",
    "title": "Union West",
    "location": "939 W Washington Blvd, Chicago, IL 60607",
    "phone": "(708) 919-2651"
  },
  {
    "from": "https://www.apartments.com/chicago-il/",
    "title": "Parkline Chicago",
    "location": "60 E Randolph St, Chicago, IL 60601",
    "phone": "(312) 757-7714"
  },
  {
    "from": "https://www.apartments.com/chicago-il/",
    "title": "The Erikson",
    "location": "3728 N Lake Shore Dr, Chicago, IL 60613",
    "phone": "(844) 319-6025"
  },
  {
    "from": "https://www.apartments.com/chicago-il/",
    "title": "Scio at the Medical District",
    "location": "901 S Ashland Ave, Chicago, IL 60607",
    "phone": "(708) 938-3138"
  },
  {
    "from": "https://www.apartments.com/chicago-il/",
    "title": "Park Dearborn",
    "location": "1260 N Dearborn St, Chicago, IL 60610",
    "phone": "(708) 683-4418"
  },
  {
    "from": "https://www.apartments.com/chicago-il/",
    "title": "The Belmont by Reside",
    "location": "3170 N Sheridan Rd, Chicago, IL 60657",
    "phone": "(708) 919-2700"
  },
  {
    "from": "https://www.apartments.com/chicago-il/",
    "title": "3450 N. Lake Shore Drive",
    "location": "3450 N Lake Shore Dr, Chicago, IL 60657",
    "phone": "(708) 725-0602"
  },
  {
    "from": "https://www.apartments.com/chicago-il/",
    "title": "Porte",
    "location": "855 W Madison St, Chicago, IL 60607",
    "phone": "(708) 316-9329"
  },
  {
    "from": "https://www.apartments.com/chicago-il/",
    "title": "4102 N Sheridan Rd",
    "location": "4102 N Sheridan Rd, Chicago, IL 60613",
    "phone": "(877) 919-3982"
  },
  {
    "from": "https://www.apartments.com/chicago-il/",
    "title": "The Van der Rohe",
    "location": "2933 N Sheridan Rd, Chicago, IL 60657",
    "phone": "(708) 725-1923"
  },
  {
    "from": "https://www.apartments.com/chicago-il/",
    "title": "One East Delaware",
    "location": "1 E Delaware Pl, Chicago, IL 60611",
    "phone": "(708) 303-8965"
  },
  {
    "from": "https://www.apartments.com/chicago-il/",
    "title": "2950 North Sheridan",
    "location": "2950 N Sheridan Rd, Chicago, IL 60657",
    "phone": "(708) 613-8619"
  },
  {
    "from": "https://www.apartments.com/chicago-il/",
    "title": "Verdant Apartments",
    "location": "830 N Milwaukee Ave, Chicago, IL 60642",
    "phone": "(708) 316-9336"
  },
  {
    "from": "https://www.apartments.com/chicago-il/",
    "title": "Than Tower",
    "location": "343 W Schiller St, Chicago, IL 60610",
    "phone": "(312) 445-2069"
  },
  {
    "from": "https://www.apartments.com/chicago-il/",
    "title": "The Duncan",
    "location": "1515 W Monroe St, Chicago, IL 60607",
    "phone": "(708) 853-5901"
  },
  {
    "from": "https://www.apartments.com/chicago-il/",
    "title": "The Oliver on LaSalle",
    "location": "1140 N Lasalle St, Chicago, IL 60610",
    "phone": "(708) 919-3423"
  },
  {
    "from": "https://www.apartments.com/chicago-il/",
    "title": "1000M",
    "location": "1000 S Michigan Ave, Chicago, IL 60605",
    "phone": "(312) 564-5012"
  },
  {
    "from": "https://www.apartments.com/chicago-il/",
    "title": "The Clark Gold Coast",
    "location": "1201 N Clark St, Chicago, IL 60610",
    "phone": "(833) 322-5291"
  }
]