[
  {
    "from": "https://www.apartments.com/chicago-il/",
    "title": "Brentwood Apartments",
    "location": "630 E George St, Bensenville, IL 60106",
    "phone": "(708) 725-0768"
  },
  {
    "from": "https://www.apartments.com/chicago-il/",
    "title": "550 Sheridan Sq",
    "location": "550 Sheridan Sq, Evanston, IL 60202",
    "phone": "(224) 504-1079"
  },
  {
    "from": "https://www.apartments.com/chicago-il/",
    "title": "415 PREMIER APARTMENTS",
    "location": "415 Howard St, Evanston, IL 60202",
    "phone": "(224) 344-2597"
  },
  {
    "from": "https://www.apartments.com/chicago-il/",
    "title": "Oak Park City Apartments",
    "location": "675 Lake St, Oak Park, IL 60301",
    "phone": "(708) 919-2399"
  },
  {
    "from": "https://www.apartments.com/chicago-il/",
    "title": "Premier Luxury Apartments",
    "location": "9600 Franklin, Franklin Park, IL 60131",
    "phone": "(708) 854-1104"
  },
  {
    "from": "https://www.apartments.com/chicago-il/",
    "title": "Oak Park Residence Corporation",
    "location": "41 South Blvd, Oak Park, IL 60302",
    "phone": "(708) 725-0977"
  },
  {
    "from": "https://www.apartments.com/chicago-il/",
    "title": "140 S Austin Blvd",
    "location": "140 S Austin Blvd, Oak Park, IL 60304",
    "phone": "(708) 934-0686"
  },
  {
    "from": "https://www.apartments.com/chicago-il/",
    "title": "4450 Sheridan Park Apartments",
    "location": "4450 N Sheridan Rd, Chicago, IL 60640",
    "phone": "(224) 344-1974"
  },
  {
    "from": "https://www.apartments.com/chicago-il/",
    "title": "Foundry",
    "location": "1475 N Kingsbury St, Chicago, IL 60642",
    "phone": "(877) 506-6439"
  },
  {
    "from": "https://www.apartments.com/chicago-il/",
    "title": "The Scott Residences",
    "location": "211 W Scott St, Chicago, IL 60610",
    "phone": "(708) 934-8646"
  },
  {
    "from": "https://www.apartments.com/chicago-il/",
    "title": "468 West Melrose",
    "location": "468 W Melrose St, Chicago, IL 60657",
    "phone": "(224) 204-0672"
  },
  {
    "from": "https://www.apartments.com/chicago-il/",
    "title": "900 W Montrose Ave",
    "location": "900 W Montrose Ave, Chicago, IL 60613",
    "phone": "(224) 470-7684"
  },
  {
    "from": "https://www.apartments.com/chicago-il/",
    "title": "540 West Roscoe Street",
    "location": "540 W Roscoe St, Chicago, IL 60657",
    "phone": "(224) 296-0479"
  },
  {
    "from": "https://www.apartments.com/chicago-il/",
    "title": "Wave Lakeview",
    "location": "420 W Belmont Ave, Chicago, IL 60657",
    "phone": "(224) 204-0877"
  },
  {
    "from": "https://www.apartments.com/chicago-il/",
    "title": "The Sovereign",
    "location": "1040 W Granville Ave, Chicago, IL 60660",
    "phone": "(224) 328-1287"
  },
  {
    "from": "https://www.apartments.com/chicago-il/",
    "title": "Everett Apartments",
    "location": "5469-5479 S Everett Ave, Chicago, IL 60615",
    "phone": "(224) 386-0863"
  },
  {
    "from": "https://www.apartments.com/chicago-il/",
    "title": "3140 Clybourn",
    "location": "3140 N Clybourn Ave, Chicago, IL 60618",
    "phone": "(234) 262-9489"
  },
  {
    "from": "https://www.apartments.com/chicago-il/",
    "title": "1613 W Belmont Ave",
    "location": "1613 W Belmont Ave, Chicago, IL 60657",
    "phone": "(877) 640-4683"
  },
  {
    "from": "https://www.apartments.com/chicago-il/",
    "title": "Marine Terrace Apartments",
    "location": "4180 N Marine Dr, Chicago, IL 60613",
    "phone": "(224) 344-1605"
  },
  {
    "from": "https://www.apartments.com/chicago-il/",
    "title": "6 Corners Lofts",
    "location": "4714 W Irving Park Rd, Chicago, IL 60641",
    "phone": "(773) 232-4128"
  },
  {
    "from": "https://www.apartments.com/chicago-il/",
    "title": "1162-1168 N La Salle Blvd",
    "location": "1162-1168 N La Salle Blvd, Chicago, IL 60610",
    "phone": "(872) 253-7038"
  },
  {
    "from": "https://www.apartments.com/chicago-il/",
    "title": "4241 Kenmore Apartments",
    "location": "4241 N Kenmore Ave, Chicago, IL 60613",
    "phone": "(833) 359-7088"
  },
  {
    "from": "https://www.apartments.com/chicago-il/",
    "title": "Luxe on Chicago",
    "location": "1838 W Chicago Ave, Chicago, IL 60622",
    "phone": "(708) 683-3435"
  },
  {
    "from": "https://www.apartments.com/chicago-il/",
    "title": "4756 N Maplewood Ave",
    "location": "4756 N Maplewood Ave, Chicago, IL 60625",
    "phone": "(844) 845-6395"
  },
  {
    "from": "https://www.apartments.com/chicago-il/",
    "title": "Chatham Apartments",
    "location": "7505 S Calumet Ave, Chicago, IL 60619",
    "phone": "(773) 915-0688"
  },
  {
    "from": "https://www.apartments.com/chicago-il/",
    "title": "The Grove Residences",
    "location": "8001 Belmont Ave, River Grove, IL 60171",
    "phone": "(708) 695-6371"
  },
  {
    "from": "https://www.apartments.com/chicago-il/",
    "title": "Mont Clare",
    "location": "7171 W Gunnison St, Harwood Heights, IL 60706",
    "phone": "(224) 222-1307"
  },
  {
    "from": "https://www.apartments.com/chicago-il/",
    "title": "7520 W Grand Ave",
    "location": "7520 W Grand Ave, Elmwood Park, IL 60707",
    "phone": "(224) 478-0407"
  },
  {
    "from": "https://www.apartments.com/chicago-il/",
    "title": "Woodland Courts",
    "location": "3621 W 119th St, Alsip, IL 60803",
    "phone": "(708) 459-9673"
  },
  {
    "from": "https://www.apartments.com/chicago-il/",
    "title": "953-959 W. FLETCHER / 3115-3121 N. SHEFFIELD",
    "location": "953-959 W Fletcher St, Chicago, IL 60657",
    "phone": "(844) 727-5190"
  },
  {
    "from": "https://www.apartments.com/chicago-il/",
    "title": "440 N. Wabash Ave.",
    "location": "440 N Wabash Ave, Chicago, IL 60611",
    "phone": "(708) 797-7713"
  },
  {
    "from": "https://www.apartments.com/chicago-il/",
    "title": "Reside on Green Street",
    "location": "500 N Milwaukee Ave, Chicago, IL 60642",
    "phone": "(708) 853-6207"
  },
  {
    "from": "https://www.apartments.com/chicago-il/",
    "title": "1819 Lofts",
    "location": "1819 W Division St, Chicago, IL 60622",
    "phone": "(708) 316-4631"
  },
  {
    "from": "https://www.apartments.com/chicago-il/",
    "title": "Sienna Chicago",
    "location": "423 E Ohio St, Chicago, IL 60611",
    "phone": "(708) 725-1156"
  },
  {
    "from": "https://www.apartments.com/chicago-il/",
    "title": "Chestnut Row Homes",
    "location": "111 W Chestnut St, Chicago, IL 60610",
    "phone": "(312) 471-0706"
  },
  {
    "from": "https://www.apartments.com/chicago-il/",
    "title": "Canterbury Court Apartments",
    "location": "1220 N State Pky, Chicago, IL 60610",
    "phone": "(708) 725-1714"
  },
  {
    "from": "https://www.apartments.com/chicago-il/",
    "title": "1133 North Dearborn",
    "location": "1133 N Dearborn St, Chicago, IL 60610",
    "phone": "(708) 797-9422"
  },
  {
    "from": "https://www.apartments.com/chicago-il/",
    "title": "Renaissance - 901 W Argyle St",
    "location": "901 W Argyle St, Chicago, IL 60640",
    "phone": "(224) 529-3901"
  },
  {
    "from": "https://www.apartments.com/chicago-il/",
    "title": "Clybourn",
    "location": "2500 N Clybourn Ave, Chicago, IL 60614",
    "phone": "(708) 316-9383"
  },
  {
    "from": "https://www.apartments.com/chicago-il/",
    "title": "Moment",
    "location": "545 N McClurg Ct, Chicago, IL 60611",
    "phone": "(708) 919-3313"
  }
]