[
  {
    "from": "https://www.apartments.com/chicago-il/",
    "title": "Arrive LEX",
    "location": "2138 S Indiana Ave, Chicago, IL 60616",
    "phone": "(708) 919-3021"
  },
  {
    "from": "https://www.apartments.com/chicago-il/",
    "title": "Chestnut Tower Apartments",
    "location": "121 W Chestnut St, Chicago, IL 60610",
    "phone": "(708) 775-3701"
  },
  {
    "from": "https://www.apartments.com/chicago-il/",
    "title": "14 West Elm Apartments",
    "location": "14 W Elm St, Chicago, IL 60610",
    "phone": "(708) 934-4375"
  },
  {
    "from": "https://www.apartments.com/chicago-il/",
    "title": "Luxe on Madison",
    "location": "1222 W Madison St, Chicago, IL 60607",
    "phone": "(708) 775-3773"
  },
  {
    "from": "https://www.apartments.com/chicago-il/",
    "title": "Algonquin Apartments",
    "location": "1606 E Hyde Park Blvd, Chicago, IL 60615",
    "phone": "(219) 600-3792"
  },
  {
    "from": "https://www.apartments.com/chicago-il/",
    "title": "Two West Delaware",
    "location": "2 W Delaware Pl, Chicago, IL 60610",
    "phone": "(708) 725-0805"
  },
  {
    "from": "https://www.apartments.com/chicago-il/",
    "title": "The Seneca Apartments",
    "location": "200 E Chestnut St, Chicago, IL 60611",
    "phone": "(708) 775-2268"
  },
  {
    "from": "https://www.apartments.com/chicago-il/",
    "title": "North Water Apartments",
    "location": "340 E North Water St, Chicago, IL 60611",
    "phone": "(708) 329-0750"
  },
  {
    "from": "https://www.apartments.com/chicago-il/",
    "title": "Xavier",
    "location": "625 W Division St, Chicago, IL 60610",
    "phone": "(708) 775-2850"
  },
  {
    "from": "https://www.apartments.com/chicago-il/",
    "title": "Maynard At Elaine Place",
    "location": "3419 N Elaine Pl, Chicago, IL 60657",
    "phone": "(708) 919-2655"
  },
  {
    "from": "https://www.apartments.com/chicago-il/",
    "title": "Circa 922",
    "location": "922 W Washington Blvd, Chicago, IL 60607",
    "phone": "(708) 775-3769"
  },
  {
    "from": "https://www.apartments.com/chicago-il/",
    "title": "2545 W Fitch Ave",
    "location": "2545 W Fitch Ave, Chicago, IL 60645",
    "phone": "(224) 478-1942"
  },
  {
    "from": "https://www.apartments.com/chicago-il/",
    "title": "ONE Old Town Park",
    "location": "1140 N Wells St, Chicago, IL 60610",
    "phone": "(708) 797-6880"
  },
  {
    "from": "https://www.apartments.com/chicago-il/",
    "title": "3ELEVEN",
    "location": "311 W Illinois St, Chicago, IL 60654",
    "phone": "(312) 548-9017"
  },
  {
    "from": "https://www.apartments.com/chicago-il/",
    "title": "NEMA Chicago",
    "location": "1210 S Indiana Ave, Chicago, IL 60605",
    "phone": "(708) 725-1935"
  },
  {
    "from": "https://www.apartments.com/chicago-il/",
    "title": "Aspire Residences",
    "location": "2111 S Wabash Ave, Chicago, IL 60616",
    "phone": "(773) 322-1761"
  },
  {
    "from": "https://www.apartments.com/chicago-il/",
    "title": "Noca Blu",
    "location": "2340 N California Ave, Chicago, IL 60647",
    "phone": "(708) 318-4489"
  },
  {
    "from": "https://www.apartments.com/chicago-il/",
    "title": "Milieu",
    "location": "205 S Peoria, Chicago, IL 60607",
    "phone": "(708) 775-3278"
  },
  {
    "from": "https://www.apartments.com/chicago-il/",
    "title": "Logan",
    "location": "2522 N Milwaukee Ave, Chicago, IL 60647",
    "phone": "(708) 938-3337"
  },
  {
    "from": "https://www.apartments.com/chicago-il/",
    "title": "Upshore Chapter",
    "location": "4555 N Sheridan Rd, Chicago, IL 60640",
    "phone": "(224) 529-3894"
  },
  {
    "from": "https://www.apartments.com/chicago-il/",
    "title": "Live Four50",
    "location": "450-454 W Belmont Ave, Chicago, IL 60657",
    "phone": "(708) 934-0516"
  },
  {
    "from": "https://www.apartments.com/chicago-il/",
    "title": "Coeval",
    "location": "51 E 14th St, Chicago, IL 60605",
    "phone": "(708) 775-3764"
  },
  {
    "from": "https://www.apartments.com/chicago-il/",
    "title": "5252 S Cornell Ave",
    "location": "5252 S Cornell Ave, Chicago, IL 60615",
    "phone": "(773) 906-7144"
  },
  {
    "from": "https://www.apartments.com/chicago-il/",
    "title": "Imprint",
    "location": "717 S Clark St, Chicago, IL 60605",
    "phone": "(708) 775-3997"
  },
  {
    "from": "https://www.apartments.com/chicago-il/",
    "title": "Westerly",
    "location": "740 N Aberdeen St, Chicago, IL 60642",
    "phone": "(708) 402-8917"
  },
  {
    "from": "https://www.apartments.com/chicago-il/",
    "title": "AMLI 808",
    "location": "808 N Wells St, Chicago, IL 60610",
    "phone": "(708) 919-3074"
  },
  {
    "from": "https://www.apartments.com/chicago-il/",
    "title": "Cascade",
    "location": "455 E Waterside Dr, Chicago, IL 60601",
    "phone": "(312) 757-8219"
  },
  {
    "from": "https://www.apartments.com/chicago-il/",
    "title": "McCormick",
    "location": "2401 S State St, Chicago, IL 60616",
    "phone": "(872) 253-7718"
  },
  {
    "from": "https://www.apartments.com/chicago-il/",
    "title": "Inspire West Town",
    "location": "670 N May St, Chicago, IL 60642",
    "phone": "(312) 997-5068"
  },
  {
    "from": "https://www.apartments.com/chicago-il/",
    "title": "Millie on Michigan",
    "location": "88 E Wacker Pl, Chicago, IL 60601",
    "phone": "(312) 870-5520"
  },
  {
    "from": "https://www.apartments.com/chicago-il/",
    "title": "The Sally",
    "location": "1135 W Winona St, Chicago, IL 60640",
    "phone": "(224) 260-2483"
  },
  {
    "from": "https://www.apartments.com/chicago-il/",
    "title": "Flora",
    "location": "1114 W Carroll Ave, Chicago, IL 60607",
    "phone": "(877) 865-0747"
  },
  {
    "from": "https://www.apartments.com/chicago-il/",
    "title": "812 West Adams",
    "location": "812 W Adams St, Chicago, IL 60607",
    "phone": "(888) 960-3199"
  },
  {
    "from": "https://www.apartments.com/chicago-il/",
    "title": "Arthur on Aberdeen",
    "location": "210 N Aberdeen St, Chicago, IL 60607",
    "phone": "(817) 659-1060"
  },
  {
    "from": "https://www.apartments.com/chicago-il/",
    "title": "Park Michigan - 1212 S Michigan Ave",
    "location": "1212 S Michigan Ave, Chicago, IL 60605",
    "phone": "(708) 919-2811"
  },
  {
    "from": "https://www.apartments.com/chicago-il/",
    "title": "Lake and Wells",
    "location": "210 N Wells St, Chicago, IL 60606",
    "phone": "(708) 775-3874"
  },
  {
    "from": "https://www.apartments.com/chicago-il/",
    "title": "Mode Logan Square",
    "location": "1950 N Campbell Ave, Chicago, IL 60647",
    "phone": "(224) 442-8203"
  },
  {
    "from": "https://www.apartments.com/chicago-il/",
    "title": "MDA Apartments",
    "location": "63 E Lake St, Chicago, IL 60601",
    "phone": "(312) 685-4373"
  },
  {
    "from": "https://www.apartments.com/chicago-il/",
    "title": "Sheridan Tower - 5650 N Sheridan Rd",
    "location": "5650 N Sheridan Rd, Chicago, IL 60660",
    "phone": "(708) 434-2534"
  },
  {
    "from": "https://www.apartments.com/chicago-il/",
    "title": "Arrive Streeterville",
    "location": "333 E Ontario St, Chicago, IL 60611",
    "phone": "(708) 919-2992"
  }
]