[
  {
    "from": "https://www.apartments.com/chicago-il/",
    "title": "AMLI Lofts",
    "location": "850 S Clark St, Chicago, IL 60605",
    "phone": "(609) 916-1265"
  },
  {
    "from": "https://www.apartments.com/chicago-il/",
    "title": "Exhibit on Superior",
    "location": "165 W Superior St, Chicago, IL 60654",
    "phone": "(708) 401-9108"
  },
  {
    "from": "https://www.apartments.com/chicago-il/",
    "title": "North Harbor Tower",
    "location": "175 N Harbor Dr, Chicago, IL 60601",
    "phone": "(708) 775-3334"
  },
  {
    "from": "https://www.apartments.com/chicago-il/",
    "title": "The Chicagoan",
    "location": "750 N RUSH St, CHICAGO, IL 60611",
    "phone": "(708) 797-9767"
  },
  {
    "from": "https://www.apartments.com/chicago-il/",
    "title": "727 West Madison",
    "location": "727 W Madison St, Chicago, IL 60661",
    "phone": "(708) 797-7069"
  },
  {
    "from": "https://www.apartments.com/chicago-il/",
    "title": "1001 South State",
    "location": "1001 S State St, Chicago, IL 60605",
    "phone": "(708) 298-5546"
  },
  {
    "from": "https://www.apartments.com/chicago-il/",
    "title": "West77 Apartments",
    "location": "77 W Huron, Chicago, IL 60654",
    "phone": "(708) 775-2543"
  },
  {
    "from": "https://www.apartments.com/chicago-il/",
    "title": "The Sinclair",
    "location": "1201 N La Salle Dr, Chicago, IL 60610",
    "phone": "(708) 725-1404"
  },
  {
    "from": "https://www.apartments.com/chicago-il/",
    "title": "SoNu Digs",
    "location": "1515 N Fremont St, Chicago, IL 60642",
    "phone": "(708) 725-1662"
  },
  {
    "from": "https://www.apartments.com/chicago-il/",
    "title": "Wolf Point East",
    "location": "313 W Wolf Point Plz, Chicago, IL 60654",
    "phone": "(312) 764-1281"
  },
  {
    "from": "https://www.apartments.com/chicago-il/",
    "title": "Lawrence Lofts",
    "location": "1049 W Lawrence Ave, Chicago, IL 60640",
    "phone": "(224) 435-5243"
  },
  {
    "from": "https://www.apartments.com/chicago-il/",
    "title": "One Six Six",
    "location": "166 N Aberdeen St, Chicago, IL 60607",
    "phone": "(708) 393-8249"
  },
  {
    "from": "https://www.apartments.com/chicago-il/",
    "title": "1400 Wabash",
    "location": "1400 S Wabash Ave, Chicago, IL 60605",
    "phone": "(708) 725-1581"
  },
  {
    "from": "https://www.apartments.com/chicago-il/",
    "title": "Paper Box Lofts",
    "location": "153 W Ohio St, Chicago, IL 60654",
    "phone": "(708) 577-5784"
  },
  {
    "from": "https://www.apartments.com/chicago-il/",
    "title": "River North Park Apartments",
    "location": "320 W Illinois St, Chicago, IL 60654",
    "phone": "(708) 775-3611"
  },
  {
    "from": "https://www.apartments.com/chicago-il/",
    "title": "One Superior Place",
    "location": "1 W Superior St, Chicago, IL 60654",
    "phone": "(708) 919-3364"
  },
  {
    "from": "https://www.apartments.com/chicago-il/",
    "title": "Marquee at Block 37",
    "location": "25 W Randolph St, Chicago, IL 60601",
    "phone": "(708) 919-2716"
  },
  {
    "from": "https://www.apartments.com/chicago-il/",
    "title": "465 North Park",
    "location": "465 N Park Dr, Chicago, IL 60611",
    "phone": "(708) 725-1453"
  },
  {
    "from": "https://www.apartments.com/chicago-il/",
    "title": "Arrive Michigan Avenue",
    "location": "1326 S Michigan Ave, Chicago, IL 60605",
    "phone": "(708) 683-3561"
  },
  {
    "from": "https://www.apartments.com/chicago-il/",
    "title": "Marlowe",
    "location": "169 W Huron St, Chicago, IL 60654",
    "phone": "(844) 620-7978"
  },
  {
    "from": "https://www.apartments.com/chicago-il/",
    "title": "Cassidy on Canal",
    "location": "350 N Canal St, Chicago, IL 60606",
    "phone": "(866) 850-8920"
  },
  {
    "from": "https://www.apartments.com/chicago-il/",
    "title": "The Bernardin",
    "location": "747 N Wabash Ave, Chicago, IL 60611",
    "phone": "(708) 775-2468"
  },
  {
    "from": "https://www.apartments.com/chicago-il/",
    "title": "Coast at Lakeshore East",
    "location": "345 E Wacker Dr, Chicago, IL 60601",
    "phone": "(708) 434-2554"
  },
  {
    "from": "https://www.apartments.com/chicago-il/",
    "title": "Wolf Point West",
    "location": "343 W Wolf Point Plz, Chicago, IL 60654",
    "phone": "(312) 564-5523"
  },
  {
    "from": "https://www.apartments.com/chicago-il/",
    "title": "One Chicago",
    "location": "14 W Superior St, Chicago, IL 60654",
    "phone": "(708) 775-3996"
  },
  {
    "from": "https://www.apartments.com/chicago-il/",
    "title": "Residences at 8 E Huron",
    "location": "8 E Huron St, Chicago, IL 60611",
    "phone": "(708) 393-2727"
  },
  {
    "from": "https://www.apartments.com/chicago-il/",
    "title": "Fisher Building Apartments",
    "location": "343 S Dearborn St, Chicago, IL 60604",
    "phone": "(312) 685-4327"
  },
  {
    "from": "https://www.apartments.com/chicago-il/",
    "title": "The Belden Stratford",
    "location": "2300 N Lincoln Park, Chicago, IL 60614",
    "phone": "(224) 470-7746"
  },
  {
    "from": "https://www.apartments.com/chicago-il/",
    "title": "The Main",
    "location": "847 Chicago Ave, Evanston, IL 60202",
    "phone": "(224) 269-6382"
  },
  {
    "from": "https://www.apartments.com/chicago-il/",
    "title": "The Grove Luxury Townhomes",
    "location": "3000 Cottonwood Ln, River Grove, IL 60171",
    "phone": "(708) 695-6233"
  },
  {
    "from": "https://www.apartments.com/chicago-il/",
    "title": "73 East Lake",
    "location": "73 E Lake St, Chicago, IL 60601",
    "phone": "(646) 362-4878"
  },
  {
    "from": "https://www.apartments.com/chicago-il/",
    "title": "State and Grand",
    "location": "505 N State St, Chicago, IL 60654",
    "phone": "(708) 303-7775"
  },
  {
    "from": "https://www.apartments.com/chicago-il/",
    "title": "920 N Wells St",
    "location": "920 N Wells St, Chicago, IL 60610",
    "phone": "(708) 725-1011"
  },
  {
    "from": "https://www.apartments.com/chicago-il/",
    "title": "One Bennett Park",
    "location": "514 N Peshtigo Ct, Chicago, IL 60611",
    "phone": "(708) 919-3001"
  },
  {
    "from": "https://www.apartments.com/chicago-il/",
    "title": "Lofts At River East",
    "location": "401-465 E Illinois St, Chicago, IL 60611",
    "phone": "(708) 683-4818"
  },
  {
    "from": "https://www.apartments.com/chicago-il/",
    "title": "Aurelien",
    "location": "833 N Clark St, Chicago, IL 60610",
    "phone": "(708) 665-2652"
  },
  {
    "from": "https://www.apartments.com/chicago-il/",
    "title": "The Van Buren",
    "location": "808 W Van Buren St, Chicago, IL 60607",
    "phone": "(708) 775-3244"
  },
  {
    "from": "https://www.apartments.com/chicago-il/",
    "title": "Eleven40",
    "location": "1140 So Wabash Ave, Chicago, IL 60605",
    "phone": "(708) 775-2321"
  },
  {
    "from": "https://www.apartments.com/chicago-il/",
    "title": "868 N. Wells",
    "location": "868 N Wells St, Chicago, IL 60610",
    "phone": "(888) 893-6096"
  },
  {
    "from": "https://www.apartments.com/chicago-il/",
    "title": "State & Chestnut",
    "location": "845 N State St, Chicago, IL 60610",
    "phone": "(708) 725-1820"
  }
]