[
  {
    "from": "https://www.apartments.com/chicago-il/",
    "title": "The Annabelle Apartments",
    "location": "661 W Sheridan Ave, Chicago, IL 60613",
    "phone": "(708) 919-3204"
  },
  {
    "from": "https://www.apartments.com/chicago-il/",
    "title": "Harbor Point Estates",
    "location": "4000 E 134th St, Chicago, IL 60633",
    "phone": "(219) 600-3768"
  },
  {
    "from": "https://www.apartments.com/chicago-il/",
    "title": "Plaisance Apartments",
    "location": "6104 S Woodlawn Ave, Chicago, IL 60637",
    "phone": "(708) 438-6262"
  },
  {
    "from": "https://www.apartments.com/chicago-il/",
    "title": "Oglesby Towers Apartments",
    "location": "6700 S Oglesby Ave, Chicago, IL 60649",
    "phone": "(219) 600-3707"
  },
  {
    "from": "https://www.apartments.com/chicago-il/",
    "title": "Scholars Corner Apartments",
    "location": "1553 E Hyde Park Blvd, Chicago, IL 60615",
    "phone": "(219) 600-3532"
  },
  {
    "from": "https://www.apartments.com/chicago-il/",
    "title": "The Townhouse Apartments",
    "location": "7022 S South Shore Dr, Chicago, IL 60649",
    "phone": "(219) 600-3751"
  },
  {
    "from": "https://www.apartments.com/chicago-il/",
    "title": "Commonwealth on the Park Apartments",
    "location": "331 W Oakdale Ave, Chicago, IL 60657",
    "phone": "(224) 808-4209"
  },
  {
    "from": "https://www.apartments.com/chicago-il/",
    "title": "Onyx on North Shore",
    "location": "1716 W North Shore Ave, Chicago, IL 60626",
    "phone": "(224) 328-1463"
  },
  {
    "from": "https://www.apartments.com/chicago-il/",
    "title": "Lake Grove Village",
    "location": "3555 S Cottage Grove Ave, Chicago, IL 60653",
    "phone": "(708) 637-0259"
  },
  {
    "from": "https://www.apartments.com/chicago-il/",
    "title": "Wyndham Apartments",
    "location": "5240 N Sheridan Rd, Chicago, IL 60640",
    "phone": "(708) 919-2497"
  },
  {
    "from": "https://www.apartments.com/chicago-il/",
    "title": "Ivy Park Homes",
    "location": "9119 S Stewart Ave, Chicago, IL 60620",
    "phone": "(708) 377-9734"
  },
  {
    "from": "https://www.apartments.com/chicago-il/",
    "title": "Bryn Mawr Belle Shore",
    "location": "1039-1049 W Bryn Mawr Ave, Chicago, IL 60660",
    "phone": "(866) 257-4515"
  },
  {
    "from": "https://www.apartments.com/chicago-il/",
    "title": "Chatham Park Village-Cooperative (Membership)",
    "location": "737 E 83rd Pl, Chicago, IL 60619",
    "phone": "(773) 232-6476"
  },
  {
    "from": "https://www.apartments.com/chicago-il/",
    "title": "OC Living",
    "location": "1325 S Washtenaw Ave, Chicago, IL 60608",
    "phone": "(872) 250-4356"
  },
  {
    "from": "https://www.apartments.com/chicago-il/",
    "title": "South Shore Beach Apartments",
    "location": "7447 S South Shore Dr, Chicago, IL 60649",
    "phone": "(219) 600-8061"
  },
  {
    "from": "https://www.apartments.com/chicago-il/",
    "title": "6246 S. King Dr.",
    "location": "6244 S King Dr, Chicago, IL 60637",
    "phone": "(219) 600-3775"
  },
  {
    "from": "https://www.apartments.com/chicago-il/",
    "title": "Presidential Apartments",
    "location": "800 Hinman Ave, Evanston, IL 60202",
    "phone": "(224) 505-2432"
  },
  {
    "from": "https://www.apartments.com/chicago-il/",
    "title": "A&K Luxury Apartments",
    "location": "213 N Walnut St, Bensenville, IL 60106",
    "phone": "(224) 232-5193"
  },
  {
    "from": "https://www.apartments.com/chicago-il/",
    "title": "Clarence & Harrison Apartments",
    "location": "620-622 Harrison St, Oak Park, IL 60304",
    "phone": "(630) 948-8459"
  },
  {
    "from": "https://www.apartments.com/chicago-il/",
    "title": "Main Station Apartments",
    "location": "855 Hinman Ave, Evanston, IL 60202",
    "phone": "(224) 505-4073"
  },
  {
    "from": "https://www.apartments.com/chicago-il/",
    "title": "Regents Park Apartments",
    "location": "930-950 W Irving Park Rd, Bensenville, IL 60106",
    "phone": "(224) 347-6920"
  },
  {
    "from": "https://www.apartments.com/chicago-il/",
    "title": "10737 S. Keating",
    "location": "10737 S Keating Ave, Oak Lawn, IL 60453",
    "phone": "(708) 271-9019"
  },
  {
    "from": "https://www.apartments.com/chicago-il/",
    "title": "Dynasty Properties",
    "location": "250 Yates Ave, Calumet City, IL 60409",
    "phone": "(219) 348-1823"
  },
  {
    "from": "https://www.apartments.com/chicago-il/",
    "title": "304 W Touhy Ave",
    "location": "304 W Touhy Ave, Park Ridge, IL 60068",
    "phone": "(847) 232-6405"
  },
  {
    "from": "https://www.apartments.com/chicago-il/",
    "title": "Blue Station",
    "location": "2130 122nd St, Blue Island, IL 60406",
    "phone": "(219) 600-3425"
  },
  {
    "from": "https://www.apartments.com/chicago-il/",
    "title": "Meadow View Apartments",
    "location": "12500 Fairview Ave, Blue Island, IL 60406",
    "phone": "(708) 394-7364"
  },
  {
    "from": "https://www.apartments.com/chicago-il/",
    "title": "2939 W Warren Blvd Unit Floor 1",
    "location": "2939 W Warren Blvd Unit Floor 1, Chicago, IL 60612",
    "phone": "N/A"
  },
  {
    "from": "https://www.apartments.com/chicago-il/",
    "title": "1761 W Augusta Blvd Unit 1",
    "location": "1761 W Augusta Blvd Unit 1, Chicago, IL 60622",
    "phone": "(872) 340-0829"
  },
  {
    "from": "https://www.apartments.com/chicago-il/",
    "title": "4119 W 24th Plz Unit 3rd Floor",
    "location": "4119 W 24th Plz Unit 3rd Floor, Chicago, IL 60623",
    "phone": "(708) 775-2412"
  },
  {
    "from": "https://www.apartments.com/chicago-il/",
    "title": "417 S Jefferson St Unit 309B",
    "location": "417 S Jefferson St Unit 309B, Chicago, IL 60607",
    "phone": "N/A"
  },
  {
    "from": "https://www.apartments.com/chicago-il/",
    "title": "1713 W Diversey Pky",
    "location": "1713 W Diversey Pky, Chicago, IL 60614",
    "phone": "(855) 941-4319"
  },
  {
    "from": "https://www.apartments.com/chicago-il/",
    "title": "2453 1st Ave",
    "location": "2453 1st Ave, River Grove, IL 60171",
    "phone": "(708) 842-6932"
  },
  {
    "from": "https://www.apartments.com/chicago-il/",
    "title": "506 Forest Ave",
    "location": "506 Forest Ave, Oak Park, IL 60302",
    "phone": "(708) 722-5903"
  },
  {
    "from": "https://www.apartments.com/chicago-il/",
    "title": "Private bedroom in 4 bed/2 bath Home",
    "location": "1214 N Damen Ave Unit B, Chicago, IL 60622",
    "phone": "(877) 899-9243"
  },
  {
    "from": "https://www.apartments.com/chicago-il/",
    "title": "101 W Superior St Unit 803",
    "location": "101 W Superior St Unit 803, Chicago, IL 60654",
    "phone": "N/A"
  },
  {
    "from": "https://www.apartments.com/chicago-il/",
    "title": "1212 N LaSalle Dr Unit 1605",
    "location": "1212 N LaSalle Dr Unit 1605, Chicago, IL 60610",
    "phone": "(844) 794-7499"
  },
  {
    "from": "https://www.apartments.com/chicago-il/",
    "title": "1750 N Mohawk St",
    "location": "1750 N Mohawk St, Chicago, IL 60614",
    "phone": "(773) 938-6202"
  },
  {
    "from": "https://www.apartments.com/chicago-il/",
    "title": "1460 N Sandburg Ter Unit 1605",
    "location": "1460 N Sandburg Ter Unit 1605, Chicago, IL 60610",
    "phone": "(312) 460-2478"
  },
  {
    "from": "https://www.apartments.com/chicago-il/",
    "title": "2143 W Wellington Ave Unit 303",
    "location": "2143 W Wellington Ave Unit 303, Chicago, IL 60618",
    "phone": "(872) 219-1220"
  },
  {
    "from": "https://www.apartments.com/chicago-il/",
    "title": "600 N Kingsbury St Unit 806",
    "location": "600 N Kingsbury St Unit 806, Chicago, IL 60654",
    "phone": "N/A"
  }
]