[
  {
    "from": "https://www.apartments.com/chicago-il/",
    "title": "Presidential Towers",
    "location": "555 W Madison St, Chicago, IL 60661",
    "phone": "(708) 725-1991"
  },
  {
    "from": "https://www.apartments.com/chicago-il/",
    "title": "180 North Jefferson",
    "location": "180 N Jefferson St, Chicago, IL 60661",
    "phone": "(708) 303-6736"
  },
  {
    "from": "https://www.apartments.com/chicago-il/",
    "title": "Shoreham and Tides",
    "location": "400 E South Water St, Chicago, IL 60601",
    "phone": "(708) 775-3187"
  },
  {
    "from": "https://www.apartments.com/chicago-il/",
    "title": "Elevate",
    "location": "930 W Altgeld St, Chicago, IL 60614",
    "phone": "(708) 512-8807"
  },
  {
    "from": "https://www.apartments.com/chicago-il/",
    "title": "The Residences at NewCity",
    "location": "1457 N Halsted St, Chicago, IL 60642",
    "phone": "(708) 919-2291"
  },
  {
    "from": "https://www.apartments.com/chicago-il/",
    "title": "MILA",
    "location": "200 N Michigan Ave, Chicago, IL 60601",
    "phone": "(844) 789-2621"
  },
  {
    "from": "https://www.apartments.com/chicago-il/",
    "title": "Sentral Michigan Avenue",
    "location": "808 S Michigan Ave, Chicago, IL 60605",
    "phone": "(708) 797-6742"
  },
  {
    "from": "https://www.apartments.com/chicago-il/",
    "title": "The 808 Cleveland",
    "location": "808 N Cleveland Ave, Chicago, IL 60610",
    "phone": "(708) 934-9407"
  },
  {
    "from": "https://www.apartments.com/chicago-il/",
    "title": "Post",
    "location": "853 W Blackhawk St, Chicago, IL 60642",
    "phone": "(224) 935-9769"
  },
  {
    "from": "https://www.apartments.com/chicago-il/",
    "title": "The Kent",
    "location": "2623-2627 N Clark St, Chicago, IL 60614",
    "phone": "(631) 619-5730"
  },
  {
    "from": "https://www.apartments.com/chicago-il/",
    "title": "Covington - 4600 N Clarendon Ave",
    "location": "4600 N Clarendon Ave, Chicago, IL 60640",
    "phone": "(708) 622-5006"
  },
  {
    "from": "https://www.apartments.com/chicago-il/",
    "title": "OneEleven",
    "location": "111 W Wacker Dr, Chicago, IL 60601",
    "phone": "(708) 725-0291"
  },
  {
    "from": "https://www.apartments.com/chicago-il/",
    "title": "Century Tower",
    "location": "182 W Lake St, Chicago, IL 60601",
    "phone": "(708) 622-0865"
  },
  {
    "from": "https://www.apartments.com/chicago-il/",
    "title": "Aqua at Lakeshore East",
    "location": "225 N Columbus Dr, Chicago, IL 60601",
    "phone": "(708) 797-2996"
  },
  {
    "from": "https://www.apartments.com/chicago-il/",
    "title": "Arrive South Loop",
    "location": "1935 S Wabash Ave, Chicago, IL 60616",
    "phone": "(708) 919-2774"
  },
  {
    "from": "https://www.apartments.com/chicago-il/",
    "title": "Prairie Shores",
    "location": "2937 South King Dr, Chicago, IL 60616",
    "phone": "(708) 637-0212"
  },
  {
    "from": "https://www.apartments.com/chicago-il/",
    "title": "River West Lofts",
    "location": "925 W Huron St, Chicago, IL 60642",
    "phone": "(866) 747-9084"
  },
  {
    "from": "https://www.apartments.com/chicago-il/",
    "title": "Park View Apartments",
    "location": "1936 N Clark St, Chicago, IL 60614",
    "phone": "(708) 477-3743"
  },
  {
    "from": "https://www.apartments.com/chicago-il/",
    "title": "The Gallery on Wells",
    "location": "637 N Wells St, Chicago, IL 60654",
    "phone": "(847) 581-6405"
  },
  {
    "from": "https://www.apartments.com/chicago-il/",
    "title": "JeffJack Apartments",
    "location": "601 W Jackson Blvd, Chicago, IL 60661",
    "phone": "(708) 775-2285"
  },
  {
    "from": "https://www.apartments.com/chicago-il/",
    "title": "SoNo East",
    "location": "840 W Blackhawk St, Chicago, IL 60642",
    "phone": "(708) 303-7522"
  },
  {
    "from": "https://www.apartments.com/chicago-il/",
    "title": "The Apartments at Lincoln Common",
    "location": "2345 N Lincoln Ave, Chicago, IL 60614",
    "phone": "(224) 998-0053"
  },
  {
    "from": "https://www.apartments.com/chicago-il/",
    "title": "Astoria Tower",
    "location": "8 E 9th St, Chicago, IL 60605",
    "phone": "(708) 637-0289"
  },
  {
    "from": "https://www.apartments.com/chicago-il/",
    "title": "The Maynard at 5115 N Sheridan",
    "location": "5101-5115 N Sheridan Rd, Chicago, IL 60640",
    "phone": "(224) 529-3357"
  },
  {
    "from": "https://www.apartments.com/chicago-il/",
    "title": "The Streeter",
    "location": "345 E Ohio St, Chicago, IL 60611",
    "phone": "(708) 303-7718"
  },
  {
    "from": "https://www.apartments.com/chicago-il/",
    "title": "The Shelby",
    "location": "2300 S Michigan Ave, Chicago, IL 60616",
    "phone": "(708) 919-2416"
  },
  {
    "from": "https://www.apartments.com/chicago-il/",
    "title": "420 E Ohio St",
    "location": "420 E Ohio St, Chicago, IL 60611",
    "phone": "(708) 775-2663"
  },
  {
    "from": "https://www.apartments.com/chicago-il/",
    "title": "The Bryn - 5600 N Sheridan Rd",
    "location": "5600 N Sheridan Rd, Chicago, IL 60660",
    "phone": "(224) 529-4428"
  },
  {
    "from": "https://www.apartments.com/chicago-il/",
    "title": "AMLI River North",
    "location": "71 W Hubbard St, Chicago, IL 60654",
    "phone": "(708) 725-1396"
  },
  {
    "from": "https://www.apartments.com/chicago-il/",
    "title": "Next Apartments",
    "location": "347 W Chestnut St, Chicago, IL 60610",
    "phone": "(708) 775-3223"
  },
  {
    "from": "https://www.apartments.com/chicago-il/",
    "title": "21 E Chestnut St",
    "location": "21 E Chestnut St, Chicago, IL 60611",
    "phone": "(708) 637-0434"
  },
  {
    "from": "https://www.apartments.com/chicago-il/",
    "title": "Beachside Apartments",
    "location": "5815 N Sheridan Rd, Chicago, IL 60660",
    "phone": "(708) 613-8123"
  },
  {
    "from": "https://www.apartments.com/chicago-il/",
    "title": "Winthrop Terrace",
    "location": "5734 N Winthrop, Chicago, IL 60660",
    "phone": "(224) 328-1363"
  },
  {
    "from": "https://www.apartments.com/chicago-il/",
    "title": "Echelon Chicago",
    "location": "353 N Desplaines St, Chicago, IL 60661",
    "phone": "(224) 470-8049"
  },
  {
    "from": "https://www.apartments.com/chicago-il/",
    "title": "Vue53",
    "location": "1324-1346 E 53rd St, Chicago, IL 60615",
    "phone": "(219) 600-4516"
  },
  {
    "from": "https://www.apartments.com/chicago-il/",
    "title": "The Morgan at Loyola Station",
    "location": "1209 W Arthur Ave, Chicago, IL 60626",
    "phone": "(224) 328-2144"
  },
  {
    "from": "https://www.apartments.com/chicago-il/",
    "title": "River City Apartments",
    "location": "800 S Wells St, Chicago, IL 60607",
    "phone": "(708) 553-4258"
  },
  {
    "from": "https://www.apartments.com/chicago-il/",
    "title": "Midpointe Apartments",
    "location": "4050-4064 W 115th St, Chicago, IL 60655",
    "phone": "(708) 816-2685"
  },
  {
    "from": "https://www.apartments.com/chicago-il/",
    "title": "Lake Meadows Apartments",
    "location": "3233 S King, Chicago, IL 60616",
    "phone": "(708) 797-6733"
  },
  {
    "from": "https://www.apartments.com/chicago-il/",
    "title": "Left Bank",
    "location": "300 N Canal St, Chicago, IL 60606",
    "phone": "(708) 725-0913"
  }
]