[
  {
    "from": "https://www.apartments.com/chicago-il/",
    "title": "5800 North Sheridan",
    "location": "5800 N Sheridan Rd, Chicago, IL 60660",
    "phone": "(224) 505-4734"
  },
  {
    "from": "https://www.apartments.com/chicago-il/",
    "title": "Dakin Court - 910 W Dakin St",
    "location": "910 W Dakin St, Chicago, IL 60613",
    "phone": "(224) 344-1583"
  },
  {
    "from": "https://www.apartments.com/chicago-il/",
    "title": "The Parker Fulton Market",
    "location": "730 W Couch Pl, Chicago, IL 60661",
    "phone": "(708) 637-0223"
  },
  {
    "from": "https://www.apartments.com/chicago-il/",
    "title": "1879 North Milwaukee",
    "location": "1879 N Milwaukee Ave, Chicago, IL 60647",
    "phone": "(708) 406-6608"
  },
  {
    "from": "https://www.apartments.com/chicago-il/",
    "title": "The Otis",
    "location": "1435 W 15th St, Chicago, IL 60608",
    "phone": "(708) 443-4690"
  },
  {
    "from": "https://www.apartments.com/chicago-il/",
    "title": "4700 Lake Park Apartments",
    "location": "4700 S Lake Park Ave, Chicago, IL 60615",
    "phone": "(219) 600-8072"
  },
  {
    "from": "https://www.apartments.com/chicago-il/",
    "title": "6031 N Paulina St",
    "location": "6031-6043 N Paulina St, Chicago, IL 60660",
    "phone": "(224) 328-1365"
  },
  {
    "from": "https://www.apartments.com/chicago-il/",
    "title": "Reside at Belmont Harbor",
    "location": "426 W Belmont Ave, Chicago, IL 60657",
    "phone": "(708) 683-3502"
  },
  {
    "from": "https://www.apartments.com/chicago-il/",
    "title": "5420 W Belmont Ave",
    "location": "5420 W Belmont Ave, Chicago, IL 60641",
    "phone": "(773) 692-9267"
  },
  {
    "from": "https://www.apartments.com/chicago-il/",
    "title": "Woodland Park By The Lake",
    "location": "606-637 E Woodland Park Ave, Chicago, IL 60616",
    "phone": "(708) 725-0797"
  },
  {
    "from": "https://www.apartments.com/chicago-il/",
    "title": "Sheridan Terrace - 6725 N Sheridan Rd",
    "location": "6725 N Sheridan Rd, Chicago, IL 60626",
    "phone": "(224) 328-1488"
  },
  {
    "from": "https://www.apartments.com/chicago-il/",
    "title": "Sheridan Plaza - 4607 N Sheridan Rd",
    "location": "4607 N Sheridan Rd, Chicago, IL 60640",
    "phone": "(224) 529-3521"
  },
  {
    "from": "https://www.apartments.com/chicago-il/",
    "title": "422 & 424 W Melrose",
    "location": "422-424 W Melrose St, Chicago, IL 60657",
    "phone": "(708) 477-3769"
  },
  {
    "from": "https://www.apartments.com/chicago-il/",
    "title": "Sheridan Lake - 6401 N Sheridan Rd",
    "location": "6401 N Sheridan Rd, Chicago, IL 60626",
    "phone": "(224) 505-2506"
  },
  {
    "from": "https://www.apartments.com/chicago-il/",
    "title": "The Versailles Apartments",
    "location": "1374 E 53rd St, Chicago, IL 60615",
    "phone": "(219) 600-8903"
  },
  {
    "from": "https://www.apartments.com/chicago-il/",
    "title": "1325 W Wilson Ave",
    "location": "1325 W Wilson Ave, Chicago, IL 60640",
    "phone": "(224) 529-3220"
  },
  {
    "from": "https://www.apartments.com/chicago-il/",
    "title": "Cadence",
    "location": "2050 W Ogden Ave, Chicago, IL 60612",
    "phone": "(312) 471-0970"
  },
  {
    "from": "https://www.apartments.com/chicago-il/",
    "title": "65 East Scott",
    "location": "65 E Scott St, Chicago, IL 60610",
    "phone": "(708) 683-4587"
  },
  {
    "from": "https://www.apartments.com/chicago-il/",
    "title": "Lakeside Grant Manor",
    "location": "7425-7427 S South Shore Dr, Chicago, IL 60649",
    "phone": "(708) 377-2554"
  },
  {
    "from": "https://www.apartments.com/chicago-il/",
    "title": "Woodlawn Commons",
    "location": "5201-5207 S Woodlawn Ave, Chicago, IL 60615",
    "phone": "(708) 960-1022"
  },
  {
    "from": "https://www.apartments.com/chicago-il/",
    "title": "6900 S South Shore Dr",
    "location": "6900 S South Shore Dr, Chicago, IL 60649",
    "phone": "(219) 600-3459"
  },
  {
    "from": "https://www.apartments.com/chicago-il/",
    "title": "4854 W North Ave",
    "location": "4854 W North Ave, Chicago, IL 60639",
    "phone": "(762) 728-4286"
  },
  {
    "from": "https://www.apartments.com/chicago-il/",
    "title": "Vesta Lofts Apartments",
    "location": "125 E 21st St, Chicago, IL 60616",
    "phone": "(224) 477-2844"
  },
  {
    "from": "https://www.apartments.com/chicago-il/",
    "title": "Park Wellington Apartments",
    "location": "434 W Wellington Ave, Chicago, IL 60657",
    "phone": "(708) 613-8340"
  },
  {
    "from": "https://www.apartments.com/chicago-il/",
    "title": "7251 at Waters Edge Apartment Homes",
    "location": "7251 S South Shore Dr, Chicago, IL 60649",
    "phone": "(219) 800-2396"
  },
  {
    "from": "https://www.apartments.com/chicago-il/",
    "title": "Lathrop",
    "location": "2000 W Diversey Ave, Chicago, IL 60647",
    "phone": "(708) 853-6351"
  },
  {
    "from": "https://www.apartments.com/chicago-il/",
    "title": "Student | The Flats East West",
    "location": "829 S Wabash Ave, Chicago, IL 60605",
    "phone": "(708) 797-2722"
  },
  {
    "from": "https://www.apartments.com/chicago-il/",
    "title": "3957 W Irving Park Rd",
    "location": "3949-3965 W Irving Park Rd, Chicago, IL 60618",
    "phone": "(224) 408-5195"
  },
  {
    "from": "https://www.apartments.com/chicago-il/",
    "title": "The Victorian Apartments",
    "location": "5326 S Cornell Ave, Chicago, IL 60615",
    "phone": "(708) 683-3320"
  },
  {
    "from": "https://www.apartments.com/chicago-il/",
    "title": "Madison Park Apartments",
    "location": "1380 E Hyde Park Blvd, Chicago, IL 60615",
    "phone": "(708) 477-3588"
  },
  {
    "from": "https://www.apartments.com/chicago-il/",
    "title": "641 W Aldine Ave",
    "location": "641 W Aldine Ave, Chicago, IL 60657",
    "phone": "(855) 900-6767"
  },
  {
    "from": "https://www.apartments.com/chicago-il/",
    "title": "Cornell (The Greenstone)",
    "location": "5424 S Cornell Ave, Chicago, IL 60615",
    "phone": "(219) 600-3502"
  },
  {
    "from": "https://www.apartments.com/chicago-il/",
    "title": "Eden Commons",
    "location": "2701 S Indiana Ave, Chicago, IL 60616",
    "phone": "(708) 298-4337"
  },
  {
    "from": "https://www.apartments.com/chicago-il/",
    "title": "Hyde Park West",
    "location": "5325 S Cottage Grove Ave, Chicago, IL 60615",
    "phone": "(708) 391-3480"
  },
  {
    "from": "https://www.apartments.com/chicago-il/",
    "title": "Academy at Drexel",
    "location": "6140 S Drexel Ave, Chicago, IL 60637",
    "phone": "(219) 600-5493"
  },
  {
    "from": "https://www.apartments.com/chicago-il/",
    "title": "2Sisters Apartments",
    "location": "5123 S Kimbark Ave, Chicago, IL 60615",
    "phone": "(708) 683-4854"
  },
  {
    "from": "https://www.apartments.com/chicago-il/",
    "title": "The Max Apartments",
    "location": "5135 S Blackstone Ave, Chicago, IL 60615",
    "phone": "(708) 683-3838"
  },
  {
    "from": "https://www.apartments.com/chicago-il/",
    "title": "505 W Melrose St",
    "location": "505 W Melrose St, Chicago, IL 60657",
    "phone": "(224) 246-8272"
  },
  {
    "from": "https://www.apartments.com/chicago-il/",
    "title": "Woodlawn House Apartments",
    "location": "5214-5214 S Woodlawn Ave, Chicago, IL 60615",
    "phone": "(708) 683-3899"
  },
  {
    "from": "https://www.apartments.com/chicago-il/",
    "title": "The Ella Apartments",
    "location": "5111 S University Ave, Chicago, IL 60615",
    "phone": "(708) 683-4788"
  }
]