[
  {
    "from": "https://www.apartments.com/chicago-il/",
    "title": "Fulbrix",
    "location": "160 N Elizabeth St, Chicago, IL 60607",
    "phone": "(708) 775-3852"
  },
  {
    "from": "https://www.apartments.com/chicago-il/",
    "title": "Reside on Barry",
    "location": "533 W Barry Ave, Chicago, IL 60657",
    "phone": "(708) 477-3205"
  },
  {
    "from": "https://www.apartments.com/chicago-il/",
    "title": "Webster Square Apartments",
    "location": "558 W Webster Ave, Chicago, IL 60614",
    "phone": "(708) 725-1465"
  },
  {
    "from": "https://www.apartments.com/chicago-il/",
    "title": "The Wilmore",
    "location": "4600 N Kenmore Ave, Chicago, IL 60640",
    "phone": "(224) 529-3627"
  },
  {
    "from": "https://www.apartments.com/chicago-il/",
    "title": "519 W Melrose St",
    "location": "519 W Melrose St, Chicago, IL 60657",
    "phone": "(844) 338-4657"
  },
  {
    "from": "https://www.apartments.com/chicago-il/",
    "title": "Webster House",
    "location": "2150 N Lincoln Park W, Chicago, IL 60614",
    "phone": "(708) 725-0781"
  },
  {
    "from": "https://www.apartments.com/chicago-il/",
    "title": "Wrightwood - 512 W Wrightwood Ave",
    "location": "512 W Wrightwood Ave, Chicago, IL 60614",
    "phone": "(708) 919-3525"
  },
  {
    "from": "https://www.apartments.com/chicago-il/",
    "title": "The Opus",
    "location": "1802 W Berenice Ave, Chicago, IL 60613",
    "phone": "(312) 517-2873"
  },
  {
    "from": "https://www.apartments.com/chicago-il/",
    "title": "2402 W Carmen Ave",
    "location": "2402 W Carmen Ave, Chicago, IL 60625",
    "phone": "(224) 470-7708"
  },
  {
    "from": "https://www.apartments.com/chicago-il/",
    "title": "Sheridan Glen - 6040 N Sheridan Rd",
    "location": "6040 N Sheridan Rd, Chicago, IL 60660",
    "phone": "(708) 613-8681"
  },
  {
    "from": "https://www.apartments.com/chicago-il/",
    "title": "596 W Hawthorne Pl",
    "location": "596 W Hawthorne Pl, Chicago, IL 60657",
    "phone": "(708) 683-4641"
  },
  {
    "from": "https://www.apartments.com/chicago-il/",
    "title": "TRIO Apartments",
    "location": "670 W Wayman St, Chicago, IL 60661",
    "phone": "(708) 853-6500"
  },
  {
    "from": "https://www.apartments.com/chicago-il/",
    "title": "Clybourn",
    "location": "2827-2847 N Clybourn Ave, Chicago, IL 60618",
    "phone": "(844) 505-3230"
  },
  {
    "from": "https://www.apartments.com/chicago-il/",
    "title": "1120 N. LaSalle",
    "location": "1120 LaSalle Dr, Chicago, IL 60610",
    "phone": "(708) 613-8442"
  },
  {
    "from": "https://www.apartments.com/chicago-il/",
    "title": "3000 N Sheridan Rd",
    "location": "3000 N Sheridan Rd, Chicago, IL 60657",
    "phone": "(224) 470-7698"
  },
  {
    "from": "https://www.apartments.com/chicago-il/",
    "title": "640 North Wells",
    "location": "640 N Wells St, Chicago, IL 60654",
    "phone": "(708) 919-3522"
  },
  {
    "from": "https://www.apartments.com/chicago-il/",
    "title": "1111 N. Dearborn St.",
    "location": "1111 N Dearborn St, Chicago, IL 60610",
    "phone": "(708) 797-2675"
  },
  {
    "from": "https://www.apartments.com/chicago-il/",
    "title": "Ashland Manor",
    "location": "4874-4880 N Ashland Ave, Chicago, IL 60640",
    "phone": "(708) 628-5539"
  },
  {
    "from": "https://www.apartments.com/chicago-il/",
    "title": "Melrose Shores",
    "location": "520 W Melrose Ave, Chicago, IL 60657",
    "phone": "(708) 477-3052"
  },
  {
    "from": "https://www.apartments.com/chicago-il/",
    "title": "Reside on Surf",
    "location": "425 W Surf St, Chicago, IL 60657",
    "phone": "(708) 919-2213"
  },
  {
    "from": "https://www.apartments.com/chicago-il/",
    "title": "Flair Tower",
    "location": "222 W Erie St, Chicago, IL 60654",
    "phone": "(708) 919-2007"
  },
  {
    "from": "https://www.apartments.com/chicago-il/",
    "title": "Reside 707",
    "location": "707 W Sheridan Rd, Chicago, IL 60613",
    "phone": "(708) 683-3542"
  },
  {
    "from": "https://www.apartments.com/chicago-il/",
    "title": "Campus Court Apartments",
    "location": "5417-5423 S Harper Ave, Chicago, IL 60615",
    "phone": "(219) 600-4969"
  },
  {
    "from": "https://www.apartments.com/chicago-il/",
    "title": "Cityfront Place",
    "location": "400 N McClurg Ct, Chicago, IL 60611",
    "phone": "(708) 775-2947"
  },
  {
    "from": "https://www.apartments.com/chicago-il/",
    "title": "The Cooper",
    "location": "720 S Wells St, Chicago, IL 60607",
    "phone": "(708) 725-1955"
  },
  {
    "from": "https://www.apartments.com/chicago-il/",
    "title": "Parc Huron",
    "location": "469 W Huron St, Chicago, IL 60654",
    "phone": "(708) 725-1496"
  },
  {
    "from": "https://www.apartments.com/chicago-il/",
    "title": "Solverre",
    "location": "4600 N Marine Dr, Chicago, IL 60640",
    "phone": "(224) 470-7756"
  },
  {
    "from": "https://www.apartments.com/chicago-il/",
    "title": "Mayfair Apartments",
    "location": "5496 S Hyde Park Blvd, Chicago, IL 60615",
    "phone": "(219) 600-3453"
  },
  {
    "from": "https://www.apartments.com/chicago-il/",
    "title": "2424 N Clark St",
    "location": "2424 N Clark St, Chicago, IL 60614",
    "phone": "(855) 922-5827"
  },
  {
    "from": "https://www.apartments.com/chicago-il/",
    "title": "3130 N Lake Shore Dr",
    "location": "3130 N Lake Shore Dr, Chicago, IL 60657",
    "phone": "(708) 406-5685"
  },
  {
    "from": "https://www.apartments.com/chicago-il/",
    "title": "Kenmore Place - 6119 N Kenmore Ave",
    "location": "6119 N Kenmore Ave, Chicago, IL 60660",
    "phone": "(224) 529-0338"
  },
  {
    "from": "https://www.apartments.com/chicago-il/",
    "title": "1522 N La Salle Dr",
    "location": "1522 N La Salle Dr, Chicago, IL 60610",
    "phone": "(708) 934-8440"
  },
  {
    "from": "https://www.apartments.com/chicago-il/",
    "title": "The Winnie",
    "location": "4750 N Winthrop Ave, Chicago, IL 60640",
    "phone": "(708) 919-2246"
  },
  {
    "from": "https://www.apartments.com/chicago-il/",
    "title": "The Saint Grand",
    "location": "218 E Grand Ave, Chicago, IL 60611",
    "phone": "(866) 747-3471"
  },
  {
    "from": "https://www.apartments.com/chicago-il/",
    "title": "2101 Michigan",
    "location": "2101 S Michigan Ave, Chicago, IL 60616",
    "phone": "(708) 634-5042"
  },
  {
    "from": "https://www.apartments.com/chicago-il/",
    "title": "Riverview Terrace",
    "location": "2609 W Belmont Ave, Chicago, IL 60618",
    "phone": "(224) 344-2575"
  },
  {
    "from": "https://www.apartments.com/chicago-il/",
    "title": "Edge @ Sheridan - 5910 N Sheridan Rd",
    "location": "5910 N Sheridan Ave, Chicago, IL 60660",
    "phone": "(224) 529-3939"
  },
  {
    "from": "https://www.apartments.com/chicago-il/",
    "title": "850 Argyle Place",
    "location": "840-850 W Argyle St, Chicago, IL 60640",
    "phone": "(224) 529-3840"
  },
  {
    "from": "https://www.apartments.com/chicago-il/",
    "title": "District @ Sheridan - 5536 N Sheridan Rd",
    "location": "5536 N Sheridan Rd, Chicago, IL 60640",
    "phone": "(224) 328-3720"
  },
  {
    "from": "https://www.apartments.com/chicago-il/",
    "title": "Twin Towers",
    "location": "1649 E 50th St, Chicago, IL 60615",
    "phone": "(219) 600-3153"
  }
]