[
  {
    "from": "https://www.apartments.com/chicago-il/",
    "title": "Belmont Tower Apartments",
    "location": "510 W Belmont Ave, Chicago, IL 60657",
    "phone": "(708) 613-8557"
  },
  {
    "from": "https://www.apartments.com/chicago-il/",
    "title": "The Deco North Lake Shore",
    "location": "1400 N Lake Shore Dr, Chicago, IL 60610",
    "phone": "(708) 775-2480"
  },
  {
    "from": "https://www.apartments.com/chicago-il/",
    "title": "The Elizabeth Chicago",
    "location": "225 N Elizabeth St, Chicago, IL 60607",
    "phone": "(833) 618-1309"
  },
  {
    "from": "https://www.apartments.com/chicago-il/",
    "title": "Mondial River West",
    "location": "910 W Huron St, Chicago, IL 60642",
    "phone": "(708) 512-3417"
  },
  {
    "from": "https://www.apartments.com/chicago-il/",
    "title": "The Reed",
    "location": "234 W Polk St, Chicago, IL 60607",
    "phone": "(855) 647-4540"
  },
  {
    "from": "https://www.apartments.com/chicago-il/",
    "title": "The Arcade Residences",
    "location": "1135 W Sheridan Rd, Chicago, IL 60660",
    "phone": "(847) 744-8051"
  },
  {
    "from": "https://www.apartments.com/chicago-il/",
    "title": "The Brixen",
    "location": "2817-2851 N Natoma Ave, Chicago, IL 60634",
    "phone": "(224) 470-7964"
  },
  {
    "from": "https://www.apartments.com/chicago-il/",
    "title": "40 East Oak",
    "location": "40 E Oak St, Chicago, IL 60611",
    "phone": "(708) 725-0570"
  },
  {
    "from": "https://www.apartments.com/chicago-il/",
    "title": "The Lawrence House",
    "location": "1020 W Lawrence Ave, Chicago, IL 60640",
    "phone": "(708) 725-0940"
  },
  {
    "from": "https://www.apartments.com/chicago-il/",
    "title": "Buena Terrace - 4242 N Sheridan Rd",
    "location": "4242 N Sheridan Rd, Chicago, IL 60613",
    "phone": "(708) 919-2498"
  },
  {
    "from": "https://www.apartments.com/chicago-il/",
    "title": "Hollywood Beach",
    "location": "5747 N Winthrop Ave, Chicago, IL 60660",
    "phone": "(224) 328-2016"
  },
  {
    "from": "https://www.apartments.com/chicago-il/",
    "title": "The Rosemont",
    "location": "1214-1224 W Rosemont Ave, Chicago, IL 60660",
    "phone": "(224) 505-2328"
  },
  {
    "from": "https://www.apartments.com/chicago-il/",
    "title": "Dearborn North",
    "location": "1117 N Dearborn St, Chicago, IL 60610",
    "phone": "(224) 204-0585"
  },
  {
    "from": "https://www.apartments.com/chicago-il/",
    "title": "Grace Street Towers",
    "location": "635 W Grace St, Chicago, IL 60613",
    "phone": "(224) 344-2392"
  },
  {
    "from": "https://www.apartments.com/chicago-il/",
    "title": "The Draper",
    "location": "5050 N Broadway St, Chicago, IL 60640",
    "phone": "(708) 725-0021"
  },
  {
    "from": "https://www.apartments.com/chicago-il/",
    "title": "777 South State",
    "location": "2 E 8th St, Chicago, IL 60605",
    "phone": "(708) 725-0759"
  },
  {
    "from": "https://www.apartments.com/chicago-il/",
    "title": "Marina City",
    "location": "300 N State St, Chicago, IL 60654",
    "phone": "(708) 725-1602"
  },
  {
    "from": "https://www.apartments.com/chicago-il/",
    "title": "Anderson Point",
    "location": "5700 N Ashland Ave, Chicago, IL 60660",
    "phone": "(224) 344-1964"
  },
  {
    "from": "https://www.apartments.com/chicago-il/",
    "title": "Sheridan-Gunnison Apartments",
    "location": "4827 N Sheridan Rd, Chicago, IL 60640",
    "phone": "(224) 435-5014"
  },
  {
    "from": "https://www.apartments.com/chicago-il/",
    "title": "Oakdale Terrace - 525 W Oakdale Ave",
    "location": "525 W Oakdale Ave, Chicago, IL 60657",
    "phone": "(708) 725-1941"
  },
  {
    "from": "https://www.apartments.com/chicago-il/",
    "title": "Winthrop Residences",
    "location": "6044 Winthrop Ave, Chicago, IL 60660",
    "phone": "(224) 458-2976"
  },
  {
    "from": "https://www.apartments.com/chicago-il/",
    "title": "The Rosie",
    "location": "1461 S Blue Island Ave, Chicago, IL 60608",
    "phone": "(708) 223-2820"
  },
  {
    "from": "https://www.apartments.com/chicago-il/",
    "title": "Axis Apartments and Lofts",
    "location": "441 E Erie St, Chicago, IL 60611",
    "phone": "(708) 622-0944"
  },
  {
    "from": "https://www.apartments.com/chicago-il/",
    "title": "Sedgwick Apartments",
    "location": "414 W Goethe St, Chicago, IL 60610",
    "phone": "(708) 775-2927"
  },
  {
    "from": "https://www.apartments.com/chicago-il/",
    "title": "534 W. Wellington Ave",
    "location": "534 W Wellington Ave, Chicago, IL 60657",
    "phone": "(224) 935-9770"
  },
  {
    "from": "https://www.apartments.com/chicago-il/",
    "title": "The Vivian",
    "location": "6807 N Sheridan Rd, Chicago, IL 60626",
    "phone": "(224) 435-5203"
  },
  {
    "from": "https://www.apartments.com/chicago-il/",
    "title": "The Regal Apartments",
    "location": "651 S Wells St, Chicago, IL 60607",
    "phone": "(708) 298-4327"
  },
  {
    "from": "https://www.apartments.com/chicago-il/",
    "title": "Museum Walk Apartments",
    "location": "5541 S Everett Ave, Chicago, IL 60637",
    "phone": "(708) 683-3634"
  },
  {
    "from": "https://www.apartments.com/chicago-il/",
    "title": "1323 W Morse Ave",
    "location": "1323 W Morse Ave, Chicago, IL 60626",
    "phone": "(224) 328-1986"
  },
  {
    "from": "https://www.apartments.com/chicago-il/",
    "title": "Lincoln Park Plaza",
    "location": "600 W Diversey Pky, Chicago, IL 60614",
    "phone": "(708) 725-1800"
  },
  {
    "from": "https://www.apartments.com/chicago-il/",
    "title": "Affinity of North Avenue",
    "location": "551 W North Ave, Chicago, IL 60610",
    "phone": "(708) 919-3469"
  },
  {
    "from": "https://www.apartments.com/chicago-il/",
    "title": "The Edison",
    "location": "5200 N Sheridan Rd, Chicago, IL 60640",
    "phone": "(224) 505-4993"
  },
  {
    "from": "https://www.apartments.com/chicago-il/",
    "title": "5401 Cornell by 3L Living",
    "location": "5401 S Cornell Ave, Chicago, IL 60615",
    "phone": "(219) 600-3514"
  },
  {
    "from": "https://www.apartments.com/chicago-il/",
    "title": "Dearborn Plaza",
    "location": "1030 N Dearborn St, Chicago, IL 60610",
    "phone": "(224) 204-0762"
  },
  {
    "from": "https://www.apartments.com/chicago-il/",
    "title": "Gramercy Row Apartments",
    "location": "660 N Dearborn St, Chicago, IL 60654",
    "phone": "(708) 919-2985"
  },
  {
    "from": "https://www.apartments.com/chicago-il/",
    "title": "Beachwalk Apartments",
    "location": "420 W Fullerton Pky, Chicago, IL 60614",
    "phone": "(708) 613-8578"
  },
  {
    "from": "https://www.apartments.com/chicago-il/",
    "title": "5540 Hyde Park by 3L Living",
    "location": "5540 S Hyde Park Blvd, Chicago, IL 60637",
    "phone": "(219) 600-3490"
  },
  {
    "from": "https://www.apartments.com/chicago-il/",
    "title": "Stephen's Commons- Senior Living-Age 62+",
    "location": "833 Wilson Ave, Chicago, IL 60640",
    "phone": "(334) 276-8233"
  },
  {
    "from": "https://www.apartments.com/chicago-il/",
    "title": "AMLI Evanston",
    "location": "737 Chicago Ave, Evanston, IL 60202",
    "phone": "(224) 529-3464"
  },
  {
    "from": "https://www.apartments.com/chicago-il/",
    "title": "Tapestry Station",
    "location": "740 Main St, Evanston, IL 60202",
    "phone": "(224) 204-0491"
  }
]